{       
          {
            point:{lat: 28.674, lng: 77.201},
            woeid:23424848
          },
          {
            point:{lat: 40.729, lng: -73.663},
            woeid:2459115
          },
          {
            point:{lat: 36.908, lng: 99.348},
            woeid:23424781
          },
          {
            point:{lat: 35.406, lng: 138.620},
            woeid:23424856
          },
          {
            point:{lat: 50.172, lng: 8.887},
            woeid:23424829
          },
          {
            point:{lat: 52.799, lng: -2.538},
            woeid:23424975
          },
          {
            point:{lat: 48.727, lng: 1.943},
            woeid:23424819
          },
          {
            point:{lat: -10.013, lng: -56.634},
            woeid:23424768
          },{
            point:{lat: 42.112, lng: 13.316},
            woeid:23424853
          },
          {
            point:{lat: 59.049, lng: -112.771},
            woeid:23424775
          },
          {
            point:{lat: 61.043, lng: 93.273},
            woeid:23424936
          },
          {
            point:{lat: 35.276, lng: 127.009},
            woeid:23424868
          },
          {
            point:{lat: -27.152, lng: 134.329},
            woeid:23424748
          },
          {
            point:{lat: 39.970, lng: -1.699},
            woeid:23424950
          },
          {
            point:{lat: -3.926, lng: 122.040},
            woeid:23424846
          },
          {
            point:{lat: 22.160, lng: -102.406},
            woeid:23424900
          },
          {
            point:{lat: 38.412, lng: 35.813},
            woeid:23424969
          },
          {
            point:{lat: 21.594, lng: 46.369},
            woeid:23424938
          },
          {
            point:{lat: 46.648, lng: 7.892},
            woeid:23424957
          },
          {
            point:{lat: 25.469, lng: 29.298}
            woeid:23424802
          }
}        


//sending location is trendsArray, trendsArray[0].trends[0].name


//key value pair


{       
          {
            23424848 :{lat: 28.674, lng: 77.201},
            woeid:23424848
          },
          {
            point:{lat: 40.729, lng: -73.663},
            woeid:23424848
          },
          {
            point:{lat: 36.908, lng: 99.348},
            woeid:23424848
          },
          {
            point:{lat: 35.406, lng: 138.620},
            woeid:23424848
          },
          {
            point:{lat: 50.172, lng: 8.887},
            woeid:23424848
          },
          {
            point:{lat: 52.799, lng: -2.538},
            woeid:23424848
          },
          {
            point:{lat: 48.727, lng: 1.943},
            woeid:23424848
          },
          {
            point:{lat: -10.013, lng: -56.634},
            woeid:23424848
          },{
            point:{lat: 42.112, lng: 13.316},
            woeid:23424848
          },
          {
            point:{lat: 59.049, lng: -112.771},
            woeid:23424848
          },
          {
            point:{lat: 61.043, lng: 93.273},
            woeid:23424848
          },
          {
            point:{lat: 35.276, lng: 127.009},
            woeid:23424848
          },
          {
            point:{lat: -27.152, lng: 134.329},
            woeid:23424848
          },
          {
            point:{lat: 39.970, lng: -1.699},
            woeid:23424848
          },
          {
            point:{lat: -3.926, lng: 122.040},
            woeid:23424848
          },
          {
            point:{lat: 22.160, lng: -102.406},
            woeid:23424848
          },{
            point:{lat: 38.412, lng: 35.813},
            woeid:23424848
          },
          {
            point:{lat: 21.594, lng: 46.369},
            woeid:23424848
          },
          {
            point:{lat: 46.648, lng: 7.892},
            woeid:23424848
          },
          {
            point:{lat: 25.469, lng: 29.298}
            woeid:23424848
          }
}    

//api calling


{
  {
    host: 'api.twitter.com',
    path: '/1.1/trends/place.json?id=23424848', //1.India
    headers: headers,
    place: 'India'
  },
  {
    host: 'api.twitter.com',
    path: '/1.1/trends/place.json?id=2459115', // 2.NY, USA
    headers: headers,
    place: 'USA'
  },
  {
    host: 'api.twitter.com',
    path: '/1.1/trends/place.json?id=23424781', // 3.China
    headers: headers,
    place: 'China'
  },
  {
    host: 'api.twitter.com',
    path: '/1.1/trends/place.json?id=23424856', // 4.Japan
    headers: headers,
    place: 'Japan'
  },
  {
    host: 'api.twitter.com',
    path: '/1.1/trends/place.json?id=23424829', // 5.Germany
    headers: headers,
    place: 'Germany'
  },
  {
    host: 'api.twitter.com',
    path: '/1.1/trends/place.json?id=23424975', // 6.UK
    headers: headers,
    place: 'UK'
  },
  {
    host: 'api.twitter.com',
    path: '/1.1/trends/place.json?id=23424819', // 7.France
    headers: headers,
    place: 'France'
  },
  {
    host: 'api.twitter.com',
    path: '/1.1/trends/place.json?id=23424768', // 8.Brazil
    headers: headers,
    place: 'Brazil'
  },
  {
    host: 'api.twitter.com',
    path: '/1.1/trends/place.json?id=23424853', // 9.Italy
    headers: headers,
    place: 'Italy'
  },
  {
    host: 'api.twitter.com',
    path: '/1.1/trends/place.json?id=23424775', // 10.Canada
    headers: headers,
    place: 'Canada'
  },
  {
    host: 'api.twitter.com',
    path: '/1.1/trends/place.json?id=23424936', // 11.Russia
    headers: headers,
    place: 'Russia'
  },
  {
    host: 'api.twitter.com',
    path: '/1.1/trends/place.json?id=23424868', // 12.Korea
    headers: headers,
    place: 'Korea'
  },
  {
    host: 'api.twitter.com',
    path: '/1.1/trends/place.json?id=23424748', // 13.Australia
    headers: headers,
    place: 'Australia'
  },
  {
    host: 'api.twitter.com',
    path: '/1.1/trends/place.json?id=23424950', // 14.Spain
    headers: headers,
    place: 'Spain'
  },
  {
    host: 'api.twitter.com',
    path: '/1.1/trends/place.json?id=23424846', // 15.Indonesia
    headers: headers,
    place: 'Indonesia'
  },
  {
    host: 'api.twitter.com',
    path: '/1.1/trends/place.json?id=23424900', // 16.Mexico
    headers: headers,
    place: 'Mexico'
  },
  {
    host: 'api.twitter.com',
    path: '/1.1/trends/place.json?id=23424969', // 17.Turkey
    headers: headers,
    place: 'Turkey'
  },
  {
    host: 'api.twitter.com',
    path: '/1.1/trends/place.json?id=23424938', // 18.Saudi Arabia	
    headers: headers,
    place: 'Saudi Arabia'
  },
  {
    host: 'api.twitter.com',
    path: '/1.1/trends/place.json?id=23424957', // 19.Switzerland
    headers: headers,
    place: 'Switzerland'
  },
  {
    host: 'api.twitter.com',
    path: '/1.1/trends/place.json?id=23424802', // 20.Egypt
    headers: headers,
    place: 'Egypt'
  }
  
}